City_ID,City,Cloudiness,Country,Date,Humidity,Lat,Lng,Max Temp,Wind Speed
0,Norman Wells,75,CA,1586727337,47,65.28,-126.83,35.6,10.29
1,Saldanha,0,ZA,1586727337,82,-33.01,17.94,57.2,3.36
2,Cape Town,0,ZA,1586727067,82,-33.93,18.42,57.0,4.7
3,Atuona,4,PF,1586727337,71,-9.8,-139.03,82.06,6.04
4,Hermanus,10,ZA,1586727337,92,-34.42,19.23,57.0,1.99
5,Arrecife,20,ES,1586727338,63,28.96,-13.55,66.2,8.05
6,Ngunguru,4,NZ,1586727338,86,-35.62,174.5,66.0,3.0
7,Ambilobe,48,MG,1586727338,82,-13.2,49.05,74.88,5.17
8,Severo-Kuril'sk,88,RU,1586727338,94,50.68,156.12,30.36,8.52
9,Airai,43,TL,1586727338,74,-8.93,125.41,61.77,1.68
10,Vostok,0,RU,1586727338,72,46.49,135.88,29.21,2.19
11,Rikitea,67,PF,1586727334,84,-23.12,-134.97,78.13,15.46
12,Hilo,40,US,1586727333,65,19.73,-155.09,82.4,10.29
13,Lang Son,100,VN,1586727339,68,21.83,106.73,58.5,3.0
14,Port Hardy,40,CA,1586727339,34,50.7,-127.42,53.6,4.7
15,Jamestown,90,US,1586727058,36,42.1,-79.24,68.0,12.75
16,Busselton,72,AU,1586727339,70,-33.65,115.33,63.0,9.28
17,Grand Gaube,40,MU,1586727339,74,-20.01,57.66,78.8,11.41
18,Broome,90,US,1586727339,29,42.25,-75.83,63.0,11.41
19,Hobyo,9,SO,1586727339,75,5.35,48.53,83.52,10.49
20,Port Alfred,0,ZA,1586727339,83,-33.59,26.89,61.0,4.0
21,Mataura,95,NZ,1586727332,71,-46.19,168.86,48.99,11.99
22,Vaini,20,TO,1586726874,74,-21.2,-175.2,78.8,6.93
23,Lázaro Cárdenas,55,MX,1586727340,58,17.96,-102.2,84.7,8.84
24,Muyezerskiy,100,RU,1586727340,90,63.93,31.65,35.46,16.73
25,Carnarvon,2,AU,1586727340,100,-24.87,113.63,75.2,16.11
26,Tanout,85,NE,1586727340,12,14.97,8.89,82.17,10.89
27,Sai Buri,82,TH,1586727340,85,6.7,101.62,79.54,7.63
28,Athabasca,100,CA,1586727340,83,54.72,-113.29,25.41,10.63
29,Wanning,77,CN,1586727341,70,18.8,110.4,65.93,10.58
30,Isangel,20,VU,1586727244,94,-19.55,169.27,77.0,3.18
31,Sørland,75,NO,1586727341,74,67.67,12.69,35.6,27.51
32,Longyearbyen,40,SJ,1586726869,70,78.22,15.64,-4.0,5.82
33,Krutinka,100,RU,1586727341,75,56.01,71.51,41.32,11.81
34,Banda Aceh,73,ID,1586727341,79,5.56,95.32,79.84,7.78
35,Salalah,20,OM,1586727341,69,17.02,54.09,82.4,9.17
36,Kirkwood,90,US,1586727341,77,38.58,-90.41,61.0,12.75
37,Geraldton,90,AU,1586727042,83,-28.77,114.6,71.6,5.82
38,Ushuaia,75,AR,1586727227,86,-54.8,-68.3,41.0,23.04
39,Cabo San Lucas,5,MX,1586727120,56,22.89,-109.91,77.0,4.7
40,Batagay-Alyta,94,RU,1586727342,87,67.8,130.41,13.62,6.11
41,Arlit,0,NE,1586727342,11,18.74,7.39,89.33,6.2
42,Panjāb,98,AF,1586727342,37,34.39,67.02,39.78,0.83
43,Arraial do Cabo,75,BR,1586727342,83,-22.97,-42.03,71.6,5.82
44,Tuktoyaktuk,20,CA,1586727342,79,69.45,-133.04,19.4,5.82
45,Kavieng,100,PG,1586727343,72,-2.57,150.8,83.71,2.37
46,Bandeirantes,8,BR,1586727343,61,-23.11,-50.37,71.91,4.05
47,Castro,13,BR,1586727333,56,-24.79,-50.01,62.92,1.86
48,Punta Arenas,40,CL,1586727082,66,-53.15,-70.92,51.8,31.09
49,Udimskiy,0,RU,1586727343,93,61.14,45.91,23.74,1.88
50,Lavrentiya,100,RU,1586727343,97,65.58,-171.0,28.42,3.04
51,Bambous Virieux,40,MU,1586727343,74,-20.34,57.76,78.8,11.41
52,Taoudenni,1,ML,1586727344,11,22.68,-3.98,90.72,11.88
53,Tula,69,RU,1586727068,74,54.2,37.61,36.25,5.21
54,São Filipe,40,CV,1586727344,79,14.9,-24.5,73.8,10.94
55,Hobart,75,AU,1586727344,93,-42.88,147.33,48.0,5.82
56,Tilichiki,1,RU,1586727344,89,60.47,166.1,7.48,7.02
57,Cooma,90,AU,1586727344,100,-36.23,149.13,39.2,5.82
58,Plettenberg Bay,37,ZA,1586727344,74,-34.05,23.37,59.9,6.6
59,Olafsvik,100,IS,1586727337,92,64.89,-23.71,42.53,21.81
60,Saint-Philippe,87,RE,1586727338,83,-21.36,55.77,75.2,5.82
61,Arman',100,RU,1586727345,95,59.7,150.17,19.4,2.1
62,Collie,62,AU,1586727345,70,-33.37,116.15,63.0,2.8
63,Avera,90,US,1586727345,94,33.19,-82.53,75.2,14.99
64,Jumla,72,NP,1586727345,20,29.27,82.18,47.73,4.43
65,Chokurdakh,30,RU,1586726871,91,70.63,147.92,-8.0,7.76
66,Puerto Ayora,75,EC,1586727345,88,-0.74,-90.35,80.6,5.82
67,Khovd,70,MN,1586727346,35,48.01,91.64,39.97,3.33
68,Cherskiy,95,RU,1586727346,95,68.75,161.3,14.32,10.71
69,Kaitangata,100,NZ,1586727346,84,-46.28,169.85,44.83,20.69
70,Hong Kong,62,HK,1586727324,39,22.29,114.16,62.6,13.87
71,Broken Hill,23,AU,1586727346,57,-31.95,141.43,50.0,6.93
72,Catia La Mar,20,VE,1586727346,70,10.6,-67.03,84.99,4.7
73,Port Lincoln,11,AU,1586727117,72,-34.73,135.87,58.03,9.1
74,Upernavik,100,GL,1586726869,97,72.79,-56.15,29.21,1.61
75,Ketchikan,1,US,1586726989,43,55.34,-131.65,51.8,5.82
76,Thompson,90,CA,1586727332,51,55.74,-97.86,14.0,11.41
77,Pontes e Lacerda,35,BR,1586727347,74,-15.23,-59.34,82.35,0.85
78,Bluff,94,NZ,1586727342,71,-46.6,168.33,48.99,11.99
79,Alyangula,69,AU,1586727347,100,-13.85,136.42,71.6,3.96
80,Nikolskoye,90,RU,1586727347,81,59.7,30.79,42.8,13.42
81,Lebu,0,CL,1586726872,56,-37.62,-73.65,55.83,16.28
82,Sambava,61,MG,1586727347,90,-14.27,50.17,75.38,7.31
83,Waipawa,14,NZ,1586727347,67,-41.41,175.52,62.6,16.11
84,Paungde,66,MM,1586727347,78,18.48,95.5,70.77,3.53
85,New Norfolk,75,AU,1586727333,93,-42.78,147.06,48.0,5.82
86,Yellowknife,5,CA,1586726988,44,62.46,-114.35,21.0,6.93
87,Cidreira,69,BR,1586727227,76,-30.18,-50.21,67.82,13.42
88,Albany,75,US,1586727340,25,42.6,-73.97,62.6,17.22
89,Hasaki,75,JP,1586727346,93,35.73,140.83,50.0,19.46
90,Lagunas,87,PE,1586727348,60,-5.23,-75.68,87.28,2.17
91,Butaritari,98,KI,1586727348,81,3.07,172.79,83.01,16.02
92,Ituiutaba,0,BR,1586727348,61,-18.97,-49.47,75.51,4.63
93,At-Bashi,74,KG,1586727348,21,41.17,75.81,47.97,7.02
94,Muroran,0,JP,1586727104,75,42.32,140.99,37.09,7.25
95,Kapaa,40,US,1586727339,61,22.08,-159.32,78.8,11.41
96,Mumbwa,32,ZM,1586727349,57,-14.98,27.06,63.66,2.59
97,Luganville,40,VU,1586727349,88,-15.53,167.17,80.6,1.12
98,Ponta do Sol,75,PT,1586727349,82,32.67,-17.1,60.8,14.99
99,Sapouy,22,BF,1586727349,24,11.55,-1.77,90.61,4.59
100,Nanortalik,85,GL,1586727341,90,60.14,-45.24,33.73,21.18
101,Vardø,75,NO,1586727349,92,70.37,31.11,28.4,20.8
102,Lakeway,40,US,1586727134,21,30.36,-97.98,86.0,14.99
103,Rimbey,90,CA,1586727350,79,52.63,-114.24,23.0,23.04
104,Marana,40,US,1586727184,30,32.44,-111.23,73.0,11.3
105,Ust'-Koksa,100,RU,1586727350,46,50.27,85.61,38.84,6.38
106,Avanigadda,0,IN,1586727350,88,16.02,80.92,76.53,3.24
107,Carndonagh,77,IE,1586727350,83,55.25,-7.27,45.27,15.21
108,Pacific Grove,90,US,1586727350,82,36.62,-121.92,60.01,9.17
109,Kismayo,100,SO,1586726987,78,-0.36,42.55,84.02,13.09
110,Iqaluit,75,CA,1586727350,85,63.75,-68.51,19.4,26.4
111,Ōhara,75,JP,1586727351,93,35.25,140.38,50.0,19.46
112,Puerto Escondido,40,MX,1586727351,79,15.85,-97.07,84.2,9.17
113,Tamsweg,85,AT,1586727351,53,47.13,13.81,50.0,3.36
114,Fukuechō,91,JP,1586727351,69,32.69,128.84,54.01,34.85
115,Cruzeiro,36,BR,1586727351,73,-22.58,-44.96,65.41,3.22
116,Alegrete,0,BR,1586727351,49,-29.78,-55.79,71.01,7.9
117,Henties Bay,0,NA,1586727351,85,-22.12,14.28,64.0,6.06
118,Lüderitz,9,NA,1586727351,100,-26.65,15.16,60.8,9.17
119,Paamiut,85,GL,1586727352,89,61.99,-49.67,34.47,32.68
120,Suez,0,EG,1586727352,48,29.97,32.53,64.69,8.88
121,Monrovia,75,LR,1586727352,94,6.3,-10.8,75.2,8.05
122,Oktyabr'skiy,34,RU,1586727142,79,54.48,53.47,35.51,4.16
123,Tripoli,17,LY,1586727352,66,32.88,13.19,62.4,18.66
124,Tasiilaq,100,GL,1586726873,86,65.61,-37.64,30.2,32.21
125,Kavaratti,0,IN,1586726869,71,10.57,72.64,84.33,5.17
126,Barrow,90,US,1586726756,92,71.29,-156.79,23.0,3.36
127,Örnsköldsvik,1,SE,1586727353,59,63.29,18.72,35.6,19.46
128,Whyalla,39,AU,1586727353,87,-33.03,137.58,46.4,5.82
129,Avarua,97,CK,1586727337,94,-21.21,-159.78,80.6,3.36
130,Iralaya,20,HN,1586727353,59,15.0,-83.23,93.2,9.17
131,Qaanaaq,86,GL,1586727353,78,77.48,-69.36,16.81,1.81
132,Krasnaya Gorka,92,RU,1586727353,85,55.2,56.67,38.73,8.25
133,Xylaganí,0,GR,1586727354,75,40.98,25.42,50.0,4.36
134,Nara,75,JP,1586727354,87,34.69,135.8,51.8,4.7
135,Camaná,29,PE,1586727354,69,-16.62,-72.71,74.64,9.37
136,Matamoros,20,MX,1586727354,2,25.53,-103.25,87.8,13.87
137,Spirit River,75,CA,1586727354,76,55.78,-118.84,32.0,2.24
138,Klaksvík,97,FO,1586727340,84,62.23,-6.59,32.0,11.41
139,Pevek,54,RU,1586727354,90,69.7,170.31,7.81,11.97
140,Sawtell,0,AU,1586727354,93,-30.38,153.1,55.4,4.7
141,Karasjok,75,NO,1586727354,68,69.47,25.51,30.2,18.34
142,Pacifica,90,US,1586727074,72,37.61,-122.49,70.0,5.82
143,Saint-Augustin,11,CA,1586727355,86,51.23,-58.65,34.48,11.54
144,Vágur,98,FO,1586727355,80,61.47,-6.81,35.44,14.0
145,Srednekolymsk,98,RU,1586727355,95,67.45,153.68,14.86,11.9
146,Itarema,100,BR,1586727355,85,-2.92,-39.92,80.33,7.92
147,Alice Springs,2,AU,1586727355,51,-23.7,133.88,59.0,3.36
148,East London,0,ZA,1586727355,64,-33.02,27.91,66.51,16.89
149,Cayenne,20,GF,1586726874,69,4.93,-52.33,82.4,10.29
150,Pangkalanbuun,99,ID,1586727356,93,-2.68,111.62,76.44,2.95
151,Fairbanks,20,US,1586727099,33,64.84,-147.72,46.4,1.9
152,Moberly,90,US,1586727321,77,39.42,-92.44,66.0,8.05
153,Ribeira Grande,20,PT,1586727353,72,38.52,-28.7,62.6,14.99
154,San Cristobal,20,VE,1586727356,52,7.77,-72.22,91.4,11.41
155,Sobolevo,52,RU,1586727356,66,54.43,31.9,39.27,10.07
156,Fortuna,1,US,1586727356,82,40.6,-124.16,60.01,16.11
157,Irpa Irpa,0,BO,1586727357,13,-17.72,-66.27,82.4,5.82
158,Senekal,81,ZA,1586727357,19,-28.32,27.62,59.11,7.52
159,Marsá Maţrūḩ,0,EG,1586727357,76,31.35,27.25,57.2,2.55
160,Deputatsky,10,RU,1586727357,84,69.3,139.9,-3.05,3.15
161,Dzaoudzi,43,YT,1586727357,88,-12.79,45.27,80.6,3.36
162,Oranjemund,22,NA,1586727357,93,-28.55,16.43,61.36,5.57
163,Mīnāb,100,IR,1586727357,73,27.15,57.08,77.0,4.7
164,Ilorin,52,NG,1586727357,58,8.5,4.55,86.0,5.32
165,Wajima,100,JP,1586727357,73,37.4,136.9,50.94,37.58
166,Faanui,81,PF,1586727358,70,-16.48,-151.75,83.1,10.69
167,Petropavlovsk-Kamchatskiy,3,RU,1586727358,74,53.05,158.65,28.4,4.47
168,Mar del Plata,90,AR,1586727358,77,-38.0,-57.56,64.4,10.29
169,Sabang,66,ID,1586727358,75,5.89,95.32,82.89,8.32
170,Caravelas,22,BR,1586726871,84,-17.71,-39.25,78.08,17.31
171,Oriximiná,95,BR,1586727358,79,-1.77,-55.87,83.19,2.13
172,Muravlenko,100,RU,1586727358,95,63.79,74.52,34.0,7.85
173,Qinhuangdao,0,CN,1586727358,46,39.93,119.59,49.3,5.39
174,Bilibino,1,RU,1586727358,88,68.05,166.44,8.8,0.96
175,Kimbe,30,PG,1586727359,85,-5.55,150.14,78.46,2.01
176,Esna,17,EG,1586727359,33,25.29,32.55,71.6,11.27
177,Mahébourg,40,MU,1586726873,74,-20.41,57.7,78.8,11.41
178,County Wicklow,75,IE,1586727359,76,53.0,-6.42,50.0,14.99
179,Sindou,19,BF,1586727359,28,10.67,-5.17,89.13,2.68
180,Port Elizabeth,0,ZA,1586727359,72,-33.92,25.57,60.8,20.8
181,Dikson,100,RU,1586726870,96,73.51,80.55,13.84,17.45
182,Mukhen,0,RU,1586727359,66,48.1,136.1,37.89,4.05
183,Emerald,0,AU,1586727359,45,-23.53,148.17,64.99,9.17
184,Sioux Lookout,75,CA,1586727360,72,50.1,-91.92,32.0,11.41
185,Chui,69,UY,1586727339,75,-33.7,-53.46,65.79,10.09
186,Barguzin,99,RU,1586727360,78,53.62,109.62,31.03,3.09
187,Zig,90,US,1586727360,93,40.13,-92.77,59.0,12.75
188,Padang,100,ID,1586726987,77,-0.95,100.35,77.02,4.5
189,Faya,20,SA,1586727360,82,18.39,42.45,62.6,5.82
190,Carauari,100,BR,1586727360,86,-4.88,-66.9,77.74,1.72
191,Mitsamiouli,97,KM,1586727360,80,-11.38,43.28,83.19,13.87
192,Torbay,75,CA,1586726867,52,47.67,-52.73,45.0,9.17
193,Saint Anthony,90,US,1586727361,86,45.02,-93.22,32.0,11.41
194,Purpe,99,RU,1586727361,97,64.48,76.69,33.31,8.97
195,Vanavara,0,RU,1586727361,95,60.34,102.28,27.84,2.17
196,Ilulissat,100,GL,1586727130,74,69.22,-51.1,37.4,12.75
197,Bunia,100,CD,1586727361,65,1.57,30.25,66.94,3.6
198,Port Macquarie,0,AU,1586727361,81,-31.43,152.92,55.0,3.36
199,Kingaroy,0,AU,1586727361,100,-26.53,151.83,53.6,5.28
200,Bollnäs,100,SE,1586727361,53,61.35,16.39,37.99,4.0
201,Yar-Sale,100,RU,1586727336,98,66.83,70.83,21.67,7.2
202,Pisco,0,PE,1586727353,30,-13.7,-76.22,80.01,23.04
203,Nova Borova,95,UA,1586727362,58,50.69,28.63,42.26,9.91
204,Dunedin,100,NZ,1586727077,65,-45.87,170.5,48.0,30.0
205,Kirakira,100,SB,1586727362,81,-10.45,161.92,80.29,4.54
206,Mikumi,100,TZ,1586727362,82,-7.4,36.98,70.09,2.21
207,Usinsk,35,RU,1586727362,92,65.99,57.53,15.78,4.14
208,Madang,88,PG,1586727362,79,-5.22,145.8,79.54,2.98
209,Vila Velha,75,BR,1586727283,64,-20.33,-40.29,75.2,9.17
210,Bredasdorp,4,ZA,1586727355,71,-34.53,20.04,57.2,76.06
211,Khandyga,63,RU,1586727363,96,62.67,135.6,21.25,3.8
212,São Gabriel da Cachoeira,92,BR,1586727363,85,-0.13,-67.09,82.85,2.44
213,Ferry Pass,90,US,1586727088,83,30.51,-87.21,79.0,14.99
214,Ostrovnoy,100,RU,1586726867,90,68.05,39.51,28.06,22.08
215,Souillac,40,MU,1586727363,74,-20.52,57.52,78.8,11.41
216,Inírida,100,CO,1586727363,61,3.87,-67.92,89.53,1.23
217,Leningradskiy,94,RU,1586727363,87,69.38,178.42,17.8,3.06
218,Ayan,100,RU,1586726873,86,56.45,138.17,33.3,9.01
219,Jardim,7,BR,1586727240,58,-21.48,-56.14,79.2,1.41
220,Hamilton,90,US,1586727364,59,39.18,-84.53,62.01,5.82
221,Nemuro,0,JP,1586727364,88,43.32,145.57,33.76,8.81
222,Saint Paul Harbor,90,US,1586727335,81,57.79,-152.41,42.8,4.7
223,Qaqortoq,100,GL,1586727364,88,60.72,-46.03,37.4,1.12
224,Karwar,9,IN,1586727364,84,14.8,74.13,78.22,1.12
225,Yangi Marg`ilon,90,UZ,1586727345,77,40.43,71.72,60.8,4.7
226,Abu Samrah,0,SY,1586727365,61,35.3,37.18,54.57,6.29
227,Harper,100,LR,1586727365,82,4.38,-7.72,81.57,7.58
228,Kununurra,66,AU,1586727365,94,-15.77,128.73,75.2,1.36
229,Maragogi,30,BR,1586727228,74,-9.01,-35.22,80.35,8.16
230,Kamaishi,83,JP,1586727365,80,39.27,141.88,45.27,15.93
231,Newport,100,GB,1586727365,62,51.59,-3.0,60.01,5.82
232,Clyde River,90,CA,1586727365,85,70.47,-68.59,10.4,28.86
233,La Ronge,75,CA,1586727365,52,55.1,-105.28,15.8,18.34
234,Arraias,95,BR,1586727366,80,-12.93,-46.94,72.36,1.7
235,Esperance,16,AU,1586727348,100,-33.87,121.9,62.6,2.24
236,Banyo,78,CM,1586726875,41,6.75,11.82,69.37,2.42
237,Santa Maria,9,BR,1586727366,44,-29.68,-53.81,78.8,8.05
238,Hithadhoo,12,MV,1586727361,68,-0.6,73.08,84.85,7.11
239,Provideniya,90,RU,1586726872,96,64.38,-173.3,32.0,8.95
240,Kiryat Gat,20,IL,1586727366,87,31.61,34.76,60.01,3.36
241,Smidovich,59,RU,1586727366,64,48.6,133.82,40.59,4.97
242,Aksu,2,CN,1586727366,19,41.12,80.26,59.85,3.58
243,Port Blair,84,IN,1586727367,72,11.67,92.75,82.08,3.8
244,Nsanje,39,MW,1586727367,70,-16.92,35.26,74.34,5.84
245,Katsuura,75,JP,1586727367,93,35.13,140.3,50.0,19.46
246,Jiayuguan City,100,CN,1586727367,21,39.82,98.3,45.52,2.53
247,Mount Gambier,42,AU,1586727367,93,-37.83,140.77,44.6,4.7
248,Kuusamo,90,FI,1586727367,92,65.97,29.18,30.2,17.22
249,Quatre Cocos,40,MU,1586727367,74,-20.21,57.76,78.8,11.41
250,Saint George,20,US,1586727338,34,37.1,-113.58,71.01,10.29
251,Bealanana,30,MG,1586727367,69,-14.55,48.73,63.36,4.97
252,Weligama,0,LK,1586726869,87,5.97,80.42,77.63,2.98
253,Bonavista,2,CA,1586727368,64,48.65,-53.11,42.01,7.0
254,Mawlaik,0,MM,1586727368,43,23.63,94.42,71.31,2.33
255,Birin,0,NP,1586727368,31,26.89,88.07,58.42,3.94
256,Salamiyah,0,SY,1586727368,67,35.01,37.05,52.75,5.48
257,Tuatapere,39,NZ,1586727341,71,-46.13,167.68,48.99,11.99
258,Parry Sound,82,CA,1586727368,77,45.35,-80.03,45.99,5.28
259,Tagusao,39,PH,1586727369,80,9.19,117.81,79.25,3.58
260,Fort Nelson,20,CA,1586727369,29,58.81,-122.7,39.2,2.24
261,Aklavik,20,CA,1586727243,40,68.22,-135.01,33.8,5.82
262,Mount Isa,19,AU,1586727369,45,-20.73,139.5,62.6,3.36
263,Mikhaylovka,0,RU,1586727369,76,50.06,43.24,30.99,12.37
264,Salinas,90,US,1586727339,76,36.68,-121.66,61.0,9.17
265,Pradera,75,CO,1586727369,65,3.42,-76.24,82.4,4.7
266,Vila Franca do Campo,75,PT,1586727369,77,37.72,-25.43,59.0,9.17
267,Warmbad,28,NA,1586727370,47,-28.45,18.73,66.25,2.8
268,San Quintín,1,MX,1586727370,63,30.48,-115.95,63.14,17.54
269,Egvekinot,36,RU,1586727370,85,66.32,-179.17,19.81,1.41
270,Bethel,75,US,1586726992,58,41.37,-73.41,62.01,11.41
271,Saskylakh,99,RU,1586726866,92,71.92,114.08,7.14,22.75
272,Yulara,0,AU,1586726990,45,-25.24,130.99,66.2,5.82
273,Pitimbu,44,BR,1586727370,83,-7.47,-34.81,80.6,8.05
274,Kosh-Agach,51,RU,1586727370,45,50.0,88.67,29.07,1.36
275,Emet,0,TR,1586727370,48,39.34,29.26,44.42,1.95
276,Alta Gracia,75,AR,1586727371,53,-31.65,-64.43,72.0,9.17
277,Waddān,0,LY,1586727371,25,29.16,16.14,71.96,19.42
278,Lompoc,90,US,1586727371,72,34.64,-120.46,63.0,9.17
279,Taltal,10,CL,1586727371,62,-25.4,-70.48,67.62,5.82
280,Khatanga,36,RU,1586727353,93,71.97,102.5,0.45,9.66
281,Palkino,100,RU,1586727371,42,57.54,28.01,48.2,15.66
282,Razdolinsk,0,RU,1586727371,88,58.42,94.67,30.6,4.92
283,Talnakh,100,RU,1586726872,72,69.49,88.4,17.6,6.71
284,Morón,66,AR,1586727372,46,-34.65,-58.62,73.4,4.7
285,Tieli,0,CN,1586727372,58,46.95,128.05,40.86,3.76
286,Inhambane,0,MZ,1586727372,80,-23.86,35.38,76.6,12.66
287,Praia da Vitória,75,PT,1586727372,77,38.73,-27.07,60.8,10.96
288,Nizwá,51,OM,1586727372,42,22.93,57.53,77.36,3.71
289,Coelho Neto,100,BR,1586727372,95,-4.26,-43.01,75.9,1.92
290,Tiksi,100,RU,1586726987,94,71.69,128.87,17.26,9.31
291,São João da Barra,75,BR,1586727373,73,-21.64,-41.05,75.2,4.7
292,Alofi,81,NU,1586727373,66,-19.06,-169.92,84.2,16.11
293,Necochea,100,AR,1586727197,97,-38.55,-58.74,61.0,1.01
294,San Patricio,40,MX,1586727373,79,19.22,-104.7,84.2,11.41
295,Liwale,100,TZ,1586727373,85,-9.77,37.93,68.77,1.59
296,Shuangyang,20,CN,1586727373,68,43.52,125.67,30.2,2.24
297,George Town,20,MY,1586726869,94,5.41,100.34,80.6,1.12
298,Douglas,90,US,1586727343,85,41.3,-96.17,32.0,17.22
299,Armidale,0,AU,1586727074,52,-30.52,151.65,44.91,3.09
300,Katete,100,UG,1586727374,61,-0.78,29.75,65.39,3.31
301,Alekseyevsk,0,RU,1586727374,94,57.84,108.35,29.05,4.81
302,Bay Roberts,75,CA,1586727374,52,47.6,-53.26,44.01,9.17
303,Verkhnevilyuysk,83,RU,1586727374,97,63.45,120.32,30.56,7.38
304,Zhuanghe,0,CN,1586727374,50,39.7,122.99,42.01,1.99
305,Auki,99,SB,1586727374,76,-8.77,160.7,82.92,7.49
306,Sisimiut,65,GL,1586727374,89,66.94,-53.67,34.75,20.62
307,Dakar,30,SN,1586727309,88,14.69,-17.44,73.4,6.93
308,Mâncio Lima,90,BR,1586727375,83,-7.61,-72.9,84.2,9.17
309,Sola,75,VU,1586727375,88,-13.88,167.55,82.4,15.19
310,Farmington,1,US,1586727375,18,36.73,-108.22,59.0,27.51
311,Zheleznogorsk,66,RU,1586727375,67,52.33,35.37,38.28,7.87
312,San Ramon,40,US,1586727375,63,37.78,-121.98,72.0,3.13
313,Huambo,94,AO,1586727375,57,-12.78,15.74,60.55,2.26
314,Nisibis,0,TR,1586727375,38,37.08,41.22,51.55,4.74
315,Namatanai,93,PG,1586727375,75,-3.67,152.43,81.75,2.71
316,Margate,88,GB,1586727163,81,51.38,1.39,57.99,5.82
317,Saint-Joseph,94,RE,1586727376,83,-21.37,55.62,75.2,5.82
318,Baijiantan,88,CN,1586727376,34,45.63,85.18,59.16,4.05
319,Cotonou,40,BJ,1586727281,79,6.37,2.42,84.2,13.87
320,Florø,40,NO,1586727376,64,61.6,5.03,36.0,26.4
321,Nagapattinam,0,IN,1586727376,74,10.77,79.83,80.76,6.44
322,Marawi,0,PH,1586727345,69,8.0,124.29,66.04,3.0
323,Berbérati,98,CF,1586727377,82,4.26,15.79,71.06,2.13
324,Laguna,1,US,1586727377,60,38.42,-121.42,73.99,5.35
325,Chapais,75,CA,1586727377,48,49.78,-74.85,41.0,11.41
326,Tsimmerbude,80,RU,1586727377,41,54.67,20.13,57.2,11.18
327,Smithers,5,CA,1586727111,19,54.78,-127.17,48.2,2.24
328,Rota,20,ES,1586727121,77,36.62,-6.36,60.8,2.24
329,Alindao,100,CF,1586727377,78,5.03,21.21,74.07,4.74
330,Vanderbijlpark,30,ZA,1586727377,61,-26.71,27.84,59.0,4.81
331,Ukiah,1,US,1586727377,46,39.15,-123.21,73.4,4.43
332,Santiago,75,CL,1586727378,59,-33.46,-70.65,64.4,2.24
333,De-Kastri,20,RU,1586727378,96,51.47,140.78,30.92,4.88
334,Dawlatabad,100,AF,1586727378,77,36.41,64.91,59.94,1.99
335,Gari,100,RU,1586727378,90,59.43,62.35,41.68,7.09
336,Antofagasta,90,CL,1586726875,72,-23.65,-70.4,66.2,11.41
337,Kargopol',70,RU,1586727378,87,61.51,38.95,28.89,11.3
338,Anajatuba,100,BR,1586727378,95,-3.26,-44.62,76.82,1.57
339,Biak,5,ID,1586727344,71,-0.91,122.88,78.98,2.37
340,Siocon,0,PH,1586727378,71,7.71,122.14,79.45,4.18
341,Rocha,81,UY,1586727379,63,-34.48,-54.33,66.4,6.26
342,Broadford,75,AU,1586727379,81,-37.2,145.07,55.0,5.82
343,Lincoln,90,US,1586727316,83,40.8,-96.67,32.0,38.03
344,Sur,28,OM,1586727379,46,22.57,59.53,82.49,12.62
345,Comodoro Rivadavia,38,AR,1586727379,45,-45.87,-67.5,64.4,11.41
346,Mergen,0,CN,1586727368,46,49.18,125.22,45.27,3.91
347,Vao,81,NC,1586727379,72,-22.67,167.48,77.14,3.67
348,Halifax,90,CA,1586727311,29,44.65,-63.57,51.01,16.11
349,Zanjān,78,IR,1586727379,49,36.67,48.48,40.93,4.56
350,Manoel Urbano,100,BR,1586727236,90,-8.84,-69.26,76.24,5.08
351,Hukuntsi,77,BW,1586726988,27,-24.0,21.75,76.1,1.74
352,Nizhniy Tsasuchey,49,RU,1586727380,41,50.52,115.13,45.5,12.1
353,Udomlya,100,RU,1586727380,71,57.88,34.99,38.32,9.26
354,Dingle,0,PH,1586727380,78,11.0,122.67,76.19,2.24
355,Riyadh,81,SA,1586727380,26,24.69,46.72,71.6,11.41
356,Fallon,1,US,1586727380,22,39.47,-118.78,57.99,8.05
357,Vestmanna,86,FO,1586727380,87,62.16,-7.17,32.0,9.17
358,Wau,100,SS,1586727380,51,7.7,28.0,80.08,3.76
359,Alto Piquiri,17,BR,1586727381,64,-24.03,-53.44,73.76,2.68
360,Hofn,87,IS,1586726989,87,64.25,-15.21,34.5,14.67
361,Wencheng,0,CN,1586727381,49,33.06,113.8,48.04,3.98
362,Uauá,81,BR,1586727381,64,-9.84,-39.48,79.29,2.51
363,Hambantota,0,LK,1586727381,84,6.12,81.12,80.47,10.56
364,Nelson Bay,59,AU,1586727147,93,-32.72,152.15,54.0,5.21
365,Walvis Bay,0,NA,1586727381,68,-22.96,14.51,66.2,3.36
366,Husavik,16,IS,1586727348,60,66.04,-17.34,42.8,28.86
367,Kaeo,6,NZ,1586727339,89,-35.1,173.78,66.0,5.99
368,‘Ewa Beach,40,US,1586727323,47,21.32,-158.01,80.6,5.82
369,Isla Vista,90,US,1586727293,77,34.41,-119.86,63.0,5.82
370,Bud,90,US,1586727355,72,39.45,-86.18,61.0,13.87
371,Lapua,100,FI,1586727382,93,62.97,23.01,37.99,3.36
372,Praia,20,CV,1586727382,69,14.92,-23.51,75.2,11.41
373,Stolin,40,BY,1586727383,59,51.89,26.85,42.94,8.5
374,Panama City,75,PA,1586727104,94,8.99,-79.52,84.2,6.93
375,Umluj,100,SA,1586727180,51,25.02,37.27,72.05,10.27
376,Shebalino,100,RU,1586727383,57,51.29,85.68,35.46,4.18
377,Puerto del Rosario,20,ES,1586727383,63,28.5,-13.86,66.2,10.29
378,Linares,30,CL,1586727383,23,-35.85,-71.6,70.09,6.58
379,Måløy,40,NO,1586727383,64,61.94,5.11,36.0,26.4
380,Amla,7,IN,1586727383,16,21.93,78.12,80.26,2.48
381,Puerto Carreño,40,CO,1586727383,29,6.19,-67.49,98.6,2.24
382,Ardabil,100,IR,1586727384,55,38.25,48.29,37.71,3.89
383,Richards Bay,25,ZA,1586727384,79,-28.78,32.04,76.37,15.68
384,Sredniy Ikorets,88,RU,1586727384,73,51.07,39.76,38.41,5.21
385,Itaituba,20,BR,1586727384,78,-4.28,-55.98,82.4,5.82
386,College,75,US,1586727384,33,64.86,-147.8,46.4,1.81
387,Najrān,40,SA,1586727384,64,17.49,44.13,75.2,6.93
388,Bamnet Narong,100,TH,1586727384,69,15.5,101.69,73.24,15.9
389,Kahului,75,US,1586727240,69,20.89,-156.47,78.8,11.41
390,Shimoda,90,JP,1586726583,71,34.67,138.95,53.6,18.34
391,Olenegorsk,100,RU,1586727385,95,68.15,33.3,25.7,10.31
392,Gibara,5,CU,1586727385,38,21.11,-76.13,93.2,19.46
393,Tura,0,IN,1586727385,33,25.52,90.22,70.25,1.41
394,Palmer,75,US,1586727348,30,42.16,-72.33,59.0,17.22
395,Batemans Bay,100,AU,1586727385,100,-35.72,150.18,53.01,2.82
396,Khasan,0,RU,1586727385,68,42.43,130.64,39.79,5.03
397,Calama,0,CL,1586727385,14,-22.47,-68.93,71.6,21.92
398,Khāsh,100,IR,1586727385,25,28.22,61.22,70.03,6.44
399,Altamont,1,US,1586727385,26,42.21,-121.74,60.01,3.36
400,Erenhot,100,CN,1586727386,29,43.65,111.98,45.36,6.64
401,Kendal,100,GB,1586727386,76,54.33,-2.75,50.0,7.0
402,Akureyri,67,IS,1586727386,60,65.68,-18.09,42.8,28.86
403,Rio Grande,20,BR,1586727386,60,-32.03,-52.1,73.4,14.99
404,Caucayá,84,CO,1586727386,76,-0.19,-74.78,82.98,2.19
405,Andenes,100,NO,1586727386,74,69.31,16.12,33.8,38.03
406,Nhulunbuy,17,AU,1586727386,94,-12.23,136.77,75.2,6.08
407,Guerrero Negro,83,MX,1586727386,59,27.98,-114.06,64.92,14.14
408,Murgab,90,TM,1586726991,87,37.5,61.97,55.4,6.93
409,Pandan,91,PH,1586727340,78,14.05,124.17,80.98,11.68
410,Sitka,75,US,1586726984,57,57.05,-135.33,48.2,5.82
411,Touros,80,BR,1586727387,78,-5.2,-35.46,80.6,6.93
412,Yerbogachën,4,RU,1586727387,95,61.28,108.01,27.97,3.91
413,Freeport,75,US,1586727331,66,40.66,-73.58,66.0,13.87
414,Kilindoni,100,TZ,1586727387,84,-7.91,39.67,79.11,11.41
415,Havelock,75,US,1586727239,49,34.88,-76.9,73.0,20.8
416,Srandakan,1,ID,1586727388,81,-7.94,110.25,76.62,4.09
417,Kaputa,73,ZM,1586727388,67,-8.47,29.66,68.38,0.38
418,Ardino,75,BG,1586727388,62,41.58,25.13,50.0,2.24
419,Solnechnyy,0,RU,1586727388,74,50.72,136.63,34.16,1.03
420,Noyabrsk,100,RU,1586727388,95,63.2,75.45,35.19,7.38
421,Kerchevskiy,100,RU,1586727388,93,59.95,56.29,34.84,5.26
422,San Rafael,100,AR,1586727388,42,-34.62,-68.33,65.98,10.47
423,Nālūt,0,LY,1586727388,21,30.33,10.85,70.86,17.43
424,Haines Junction,100,CA,1586727389,60,60.75,-137.51,35.65,6.67
425,Portland,20,US,1586726814,21,45.52,-122.68,66.0,11.41
426,Berlevåg,75,NO,1586727389,79,70.86,29.09,28.4,8.05
427,Presidencia Roque Sáenz Peña,0,AR,1586727389,44,-26.79,-60.44,77.49,3.89
428,Kozan,40,TR,1586727389,100,37.46,35.82,60.01,4.7
429,Naze,1,JP,1586727348,59,28.37,129.48,62.6,32.21
430,Caxito,40,AO,1586727389,83,-8.58,13.66,80.6,4.7
431,Kondopoga,100,RU,1586727390,92,62.21,34.26,35.6,8.95
432,Guarapari,75,BR,1586727390,64,-20.67,-40.5,75.2,9.17
433,Asău,1,RO,1586727390,43,46.43,26.4,52.0,14.99
434,Slobodskoy,100,RU,1586727211,94,58.73,50.18,27.14,11.21
435,Lorengau,27,PG,1586727353,75,-2.02,147.27,82.54,3.58
436,Road Town,75,VG,1586727390,66,18.42,-64.62,84.2,12.75
437,Garbolovo,90,RU,1586727390,81,60.34,30.5,42.8,13.42
438,Lishui,0,CN,1586727390,73,28.46,119.91,46.78,2.8
439,Tromsø,90,NO,1586727390,92,69.65,18.96,28.4,11.41
440,Kieta,100,PG,1586727391,78,-6.22,155.63,81.54,1.34
441,Sompeta,0,IN,1586727391,53,18.93,84.6,80.96,10.36
442,Mayo,1,US,1586727391,59,38.89,-76.51,73.0,16.11
443,Bad Doberan,75,DE,1586727391,62,54.11,11.9,51.8,5.82
444,Vila do Maio,20,CV,1586727391,69,15.13,-23.22,75.2,11.41
445,Labuhan,67,ID,1586727391,85,-6.88,112.21,76.21,3.22
446,Prainha,100,BR,1586727391,91,-1.8,-53.48,80.08,2.84
447,Kautokeino,100,NO,1586727391,95,69.01,23.04,26.35,20.45
448,Hualmay,55,PE,1586726871,65,-11.1,-77.61,77.97,9.48
449,Shelburne,40,CA,1586727392,50,44.08,-80.2,60.01,11.41
450,Grindavik,90,IS,1586727373,100,63.84,-22.43,42.8,18.34
451,Yaan,9,NG,1586727392,43,7.38,8.57,84.42,4.79
452,Abay,90,KZ,1586727392,100,49.63,72.85,44.6,4.47
453,Muros,75,ES,1586727392,93,42.78,-9.06,59.0,6.93
454,Belaya Gora,72,RU,1586727392,90,68.53,146.42,1.92,4.63
455,Valleyview,87,CA,1586727392,73,55.07,-117.29,28.8,8.19
456,Yumen,40,CN,1586727336,20,40.28,97.2,47.46,5.84
457,Buenos Aires,48,AR,1586727201,68,-34.61,-58.38,73.4,9.17
458,Metro,59,ID,1586727393,92,-5.11,105.31,75.07,3.8
459,Kalakamati,73,BW,1586727393,24,-20.59,27.31,72.91,4.18
460,Iporá,28,BR,1586727393,68,-16.44,-51.12,77.58,1.52
461,Along,83,IN,1586727393,56,28.17,94.77,63.3,4.34
462,Gamba,100,GA,1586727393,77,-2.65,10.0,80.28,2.98
463,Drayton Valley,99,CA,1586727393,76,53.22,-114.99,26.4,16.6
464,Methana,0,GR,1586727393,71,37.58,23.39,62.01,4.18
465,Codrington,93,AU,1586726987,81,-38.27,141.97,51.17,7.31
466,Lagoa,0,PT,1586727393,81,39.05,-27.98,61.72,9.08
467,Mandan,20,US,1586727394,36,46.83,-100.89,30.2,16.11
468,Eenhana,11,NA,1586727394,83,-17.47,16.33,73.4,1.12
469,Baft,59,IR,1586727394,35,29.23,56.61,53.8,6.24
470,Sretensk,70,RU,1586727394,65,52.25,117.71,37.38,11.12
471,West Lafayette,90,US,1586727103,77,40.43,-86.91,60.8,9.17
472,Uptar,100,RU,1586727394,94,59.75,150.92,12.81,1.07
473,Vinh Long,98,VN,1586727394,86,10.25,105.97,78.51,6.73
474,Te Anau,26,NZ,1586727395,66,-45.42,167.72,42.67,7.49
475,Chara,5,RU,1586727395,82,56.91,118.26,19.33,3.44
476,Kabinda,98,CD,1586727395,74,-6.13,24.48,70.93,1.79
477,Sistranda,75,NO,1586727395,86,63.73,8.83,35.01,19.46
478,Quetta,98,PK,1586727106,27,30.2,67.01,65.41,2.3
479,Chunoyar,0,RU,1586727395,92,57.45,97.32,31.03,4.68
480,Mbeya,74,TZ,1586727373,58,-8.9,33.45,59.58,5.14
481,Bitung,20,ID,1586727167,94,1.45,125.18,71.6,2.24
482,Northam,100,GB,1586727363,80,51.03,-4.22,57.0,1.01
483,Manacapuru,40,BR,1586727396,78,-3.3,-60.62,80.6,17.22
484,Mandiana,61,GN,1586727396,43,10.63,-8.68,86.27,2.75
485,Liuhe,0,CN,1586727396,57,42.24,125.72,38.19,2.19
486,Manokwari,97,ID,1586727396,73,-0.87,134.08,79.34,6.76
487,Tatvan,0,TR,1586727396,35,38.51,42.28,38.7,4.41
488,Turaif,22,SA,1586727396,44,31.67,38.66,59.0,4.7
489,Porto Santo,40,PT,1586727396,77,33.07,-16.34,62.6,14.99
490,Gornozavodsk,100,RU,1586727396,85,58.38,58.32,35.92,4.68
491,Bonthe,96,SL,1586727290,78,7.53,-12.51,83.25,7.74
492,Otradnoye,90,RU,1586727106,81,59.78,30.82,42.8,13.42
493,Mareeba,3,AU,1586727397,94,-17.0,145.43,73.99,1.12
494,Burnie,85,AU,1586727397,8,-41.07,145.92,53.01,10.02
495,Sefophe,36,BW,1586727397,30,-22.18,27.97,70.18,1.57
496,Maniitsoq,100,GL,1586727397,93,65.42,-52.9,33.93,25.34
497,Aktash,67,RU,1586727397,45,50.3,87.73,23.7,5.35
498,Kibala,95,TD,1586727397,38,9.11,18.35,91.4,4.99
499,Manjacaze,0,MZ,1586727397,67,-24.71,33.88,74.21,11.16
500,Szczecinek,45,PL,1586727398,47,53.71,16.7,55.0,6.06
501,Torrijos,29,ES,1586727398,54,39.98,-4.28,59.0,3.36
502,Shubarshi,35,KZ,1586727398,66,48.59,57.19,39.87,14.67
503,Stryn,75,NO,1586727398,59,61.9,6.72,35.01,40.26
504,Mugur-Aksy,9,RU,1586727398,41,50.35,90.5,28.94,2.26
505,Sekoma,49,BW,1586727398,27,-24.4,23.88,75.45,5.39
506,Mizdah,0,LY,1586727398,45,31.45,12.98,58.69,19.33
507,Cockburn Town,0,TC,1586727398,80,21.46,-71.14,79.93,15.59
508,Brae,94,GB,1586727399,55,60.4,-1.35,37.4,23.04
509,Kumylzhenskaya,2,RU,1586727399,76,49.88,42.59,36.0,11.3
510,Kourou,20,GF,1586727399,69,5.16,-52.65,82.4,10.29
511,Krasnorechenskiy,0,RU,1586727399,80,44.63,135.35,29.35,3.0
512,Mozarlândia,47,BR,1586727399,68,-14.74,-50.57,81.59,1.9
513,San Felipe,16,VE,1586727399,51,10.34,-68.74,84.33,8.55
514,Aykhal,90,RU,1586727347,69,66.0,111.5,33.8,6.71
515,Rabo de Peixe,75,PT,1586727399,77,37.8,-25.58,59.0,9.17
516,Cochrane,75,CA,1586727254,53,51.18,-114.47,28.99,12.75
517,Graaff-Reinet,0,ZA,1586727400,70,-32.25,24.53,57.99,2.13
518,Gizo Government Station,83,SB,1586727400,76,-8.1,156.84,82.92,4.43
519,Mackay,40,AU,1586727400,94,-21.15,149.2,73.4,6.93
520,Øksfjord,75,NO,1586727400,80,70.24,22.35,30.2,25.28
521,Yuzhnyy,65,RU,1586727400,44,53.25,83.69,39.2,8.95
522,Svetlaya,0,RU,1586727400,83,46.54,138.33,34.21,4.47
523,Banff,100,CA,1586727376,55,51.18,-115.57,26.01,7.0
524,Linhai,25,CN,1586727400,85,28.85,121.12,48.0,4.59
525,Ancud,90,CL,1586727401,66,-41.87,-73.82,55.4,2.24
526,Simbahan,0,PH,1586727401,66,6.3,120.58,81.52,4.23
527,Yantzaza,75,EC,1586727393,54,-3.83,-78.76,82.4,18.34
528,Wukari,24,NG,1586727401,34,7.85,9.78,86.34,4.21
529,Honiara,40,SB,1586727401,88,-9.43,159.95,78.8,3.36
530,Altay,100,CN,1586727401,35,47.87,88.12,46.38,5.73
531,Houston,1,US,1586726707,26,29.76,-95.36,91.99,21.92
532,Atar,2,MR,1586727401,17,20.52,-13.05,82.96,9.66
533,Alta Floresta,40,BR,1586727402,70,-9.88,-56.09,86.0,3.36
534,Manuk Mangkaw,39,PH,1586727402,73,4.8,119.85,81.75,7.0
535,Byron Bay,1,AU,1586727125,100,-28.65,153.62,66.0,6.53
536,Kushima,40,JP,1586727402,61,31.46,131.23,50.0,10.29
537,Meulaboh,95,ID,1586727334,83,4.14,96.13,79.07,5.86
538,Karaton,40,ID,1586727402,88,-6.34,106.1,78.8,2.24
539,Hirara,49,JP,1586727402,48,24.8,125.28,65.82,20.98
